% program   : rnx2rtkp ver.2.4.3 b31
% inp file  : a.19o
% inp file  : b.19o
% inp file  : b.19n
% obs start : 2019/08/31 08:16:29.0 GPST (week2068 548189.0s)
% obs end   : 2019/08/31 09:25:24.0 GPST (week2068 552324.0s)
% pos mode  : kinematic
% freqs     : L1
% solution  : forward
% elev mask : 15.0 deg
% dynamics  : off
% tidecorr  : on
% ionos opt : broadcast
% tropo opt : saastamoinen
% ephemeris : broadcast
% amb res   : fix and hold
% val thres : 2.0
% antenna1  :                       ( 0.0000  0.0000  0.0000)
% antenna2  :                       ( 0.0000  0.0000  0.0000)
% ref pos   : 28.153520875  112.989119928    88.8140
%
% (e/n/u-baseline=WGS84,Q=1:fix,2:float,3:sbas,4:dgps,5:single,6:ppp,ns=# of satellites)
%  GPST                  e-baseline(m)  n-baseline(m)  u-baseline(m)   Q  ns   sde(m)   sdn(m)   sdu(m)  sden(m)  sdnu(m)  sdue(m) age(s)  ratio
2019/08/31 08:16:29.000       -21.8744        20.2842        30.8789   2   5   1.1077   2.0126   2.6502  -1.3199   1.9328  -1.2966   0.00    1.4   4.70
2019/08/31 08:16:32.000       -14.7959         8.0060        10.1342   2   5   0.7877   1.4286   1.8751  -0.9380   1.3659  -0.9169   0.00    1.3   4.69
2019/08/31 08:16:36.000       -14.5890         8.5028        10.6030   1   5   0.0112   0.0204   0.0267  -0.0134   0.0195  -0.0131   0.00    3.9   4.68
2019/08/31 08:16:42.000       -14.0202         6.9669         9.7101   2   5   0.5533   0.9960   1.3026  -0.6547   0.9418  -0.6332   0.00    1.3   4.66
2019/08/31 08:16:44.000       -14.2811         7.2673        11.7010   1   5   0.0112   0.0203   0.0266  -0.0133   0.0194  -0.0130   0.00    3.5   4.66
2019/08/31 08:16:46.000       -14.3864         7.9870        11.6278   2   5   0.4496   0.8056   1.0515  -0.5298   0.7567  -0.5095   0.00    1.8   4.65
2019/08/31 08:16:48.000       -14.6096         8.7716        12.1840   2   5   0.4154   0.7429   0.9690  -0.4886   0.6960  -0.4688   0.00    1.1   4.65
2019/08/31 08:16:50.000       -14.4593         9.2888        13.9575   2   5   0.3877   0.6922   0.9022  -0.4554   0.6467  -0.4359   0.00    1.0   4.64
2019/08/31 08:16:52.000       -14.5285         9.7411        13.8045   1   5   0.0112   0.0202   0.0265  -0.0133   0.0192  -0.0129   0.00    3.1   4.64
2019/08/31 08:16:55.000       -13.2735         7.7289        10.9776   2   5   0.3449   0.6130   0.7976  -0.4034   0.5689  -0.3839   0.00    1.2   4.63
2019/08/31 08:17:01.000       -13.7280         7.9489        11.9945   1   5   0.0111   0.0201   0.0264  -0.0132   0.0191  -0.0128   0.00    3.3   4.61
2019/08/31 08:17:04.000       -13.2152         7.0971        10.8969   1   5   0.0111   0.0200   0.0263  -0.0132   0.0191  -0.0128   0.00    3.9   4.60
2019/08/31 08:17:08.000       -13.2707         7.4070        11.0621   2   5   0.2968   0.5189   0.6708  -0.3421   0.4697  -0.3187   0.00    1.5   4.59
2019/08/31 08:17:10.000       -13.0793         7.3358        10.5092   1   5   0.0111   0.0200   0.0263  -0.0131   0.0189  -0.0127   0.00    8.0   4.59
2019/08/31 08:17:13.000       -12.9967         7.6588        10.6498   2   5   0.2735   0.4732   0.6088  -0.3123   0.4214  -0.2872   0.00    1.7   4.58
2019/08/31 08:17:17.000       -12.5666         7.3553         9.7226   2   5   0.2631   0.4525   0.5806  -0.2989   0.3989  -0.2725   0.00    1.6   4.57
2019/08/31 08:17:19.000       -11.7709         6.8741         7.9598   2   5   0.2540   0.4346   0.5562  -0.2872   0.3797  -0.2600   0.00    1.6   4.57
2019/08/31 08:17:22.000       -11.4577         6.4663         6.8662   1   5   0.0110   0.0198   0.0261  -0.0130   0.0188  -0.0126   0.00    3.0   4.56
2019/08/31 08:17:24.000       -10.6544         5.6868         4.6067   2   5   0.2379   0.4029   0.5129  -0.2666   0.3455  -0.2378   0.00    1.0   4.55
2019/08/31 08:17:30.000       -10.2278         5.2396         3.2795   1   5   0.0110   0.0197   0.0260  -0.0129   0.0186  -0.0125   0.00   10.6   4.54
2019/08/31 08:17:34.000        -9.8835         4.9131         2.2834   2   5   0.2233   0.3726   0.4710  -0.2470   0.3104  -0.2153   0.00    1.2   4.53
2019/08/31 08:17:39.000        -9.3419         4.7720         2.1996   1   5   0.0109   0.0196   0.0259  -0.0128   0.0185  -0.0124   0.00    2.3   4.52
2019/08/31 08:17:42.000        -9.6208         4.5756         1.1054   1   5   0.0109   0.0196   0.0258  -0.0128   0.0185  -0.0124   0.00    4.7   4.51
2019/08/31 08:17:45.000        -9.4443         4.6905         1.4208   2   5   0.2049   0.3341   0.4169  -0.2223   0.2647  -0.1865   0.00    1.8   4.50
2019/08/31 08:17:49.000        -9.6112         4.5639         1.1148   1   5   0.0109   0.0195   0.0258  -0.0128   0.0183  -0.0123   0.00    4.3   4.49
2019/08/31 08:17:52.000        -9.4104         4.6572         0.8834   2   5   0.1946   0.3127   0.3868  -0.2085   0.2389  -0.1703   0.00    1.8   4.48
2019/08/31 08:17:54.000        -9.1123         4.4608         0.3265   2   5   0.1901   0.3036   0.3740  -0.2027   0.2281  -0.1636   0.00    1.3   4.48
2019/08/31 08:17:59.000        -9.0895         4.6771         0.4534   2   5   0.1857   0.2943   0.3609  -0.1967   0.2165  -0.1563   0.00    1.3   4.47
2019/08/31 08:18:01.000        -9.1199         4.8485         0.5399   2   5   0.1817   0.2862   0.3494  -0.1914   0.2067  -0.1503   0.00    1.9   4.46
2019/08/31 08:18:03.000        -9.2343         4.9575         1.1111   1   5   0.0108   0.0193   0.0256  -0.0126   0.0181  -0.0121   0.00    2.1   4.46
2019/08/31 08:18:07.000        -9.2400         4.9655         1.1362   1   5   0.0108   0.0193   0.0255  -0.0126   0.0181  -0.0121   0.00    3.7   4.45
2019/08/31 08:18:12.000        -9.1417         5.2007         1.0977   2   5   0.1707   0.2639   0.3182  -0.1771   0.1791  -0.1333   0.00    1.9   4.44
2019/08/31 08:18:15.000        -9.1961         5.3899         1.3522   2   5   0.1675   0.2573   0.3088  -0.1728   0.1707  -0.1281   0.00    1.0   4.43
2019/08/31 08:18:17.000        -9.5907         6.0032         1.7228   1   5   0.0107   0.0192   0.0254  -0.0125   0.0179  -0.0120   0.00    2.2   4.42
2019/08/31 08:18:20.000        -9.5940         6.0277         1.7350   1   5   0.0107   0.0191   0.0254  -0.0125   0.0179  -0.0120   0.00    3.5   4.42
2019/08/31 08:18:23.000        -9.5888         6.0156         1.7205   1   5   0.0107   0.0191   0.0253  -0.0125   0.0178  -0.0119   0.00    6.8   4.41
2019/08/31 08:18:26.000        -9.5798         5.9840         1.7125   1   5   0.0107   0.0191   0.0253  -0.0124   0.0178  -0.0119   0.00   26.2   4.40
2019/08/31 08:18:30.000        -9.5777         5.9832         1.6862   1   5   0.0107   0.0190   0.0252  -0.0124   0.0177  -0.0118   0.00   18.9   4.39
2019/08/31 08:18:32.000        -9.5730         5.9909         1.6951   1   5   0.0107   0.0190   0.0252  -0.0124   0.0177  -0.0118   0.00    3.7   4.39
2019/08/31 08:18:40.000        -9.7591         5.8830         2.2027   2   5   0.1486   0.2196   0.2559  -0.1486   0.1212  -0.0987   0.00    1.3   4.37
2019/08/31 08:18:44.000        -9.7929         5.8486         2.2293   2   5   0.1463   0.2150   0.2492  -0.1456   0.1143  -0.0949   0.00    1.1   4.36
2019/08/31 08:18:53.000        -9.7977         5.8364         2.3036   2   5   0.1438   0.2098   0.2418  -0.1423   0.1055  -0.0900   0.00    1.0   4.34
2019/08/31 08:19:11.000        -9.6661         5.7327         2.1750   2   5   0.1411   0.2034   0.2328  -0.1382   0.0923  -0.0831   0.00    1.2   4.30
2019/08/31 08:19:23.000        -9.6307         5.6808         1.9413   2   5   0.1387   0.1977   0.2240  -0.1347   0.0792  -0.0768   0.00    1.2   4.28
2019/08/31 08:19:26.000        -9.6730         5.6989         1.7265   2   5   0.1366   0.1933   0.2167  -0.1319   0.0691  -0.0724   0.00    1.3   4.27
2019/08/31 08:19:29.000        -9.6058         5.5750         1.3972   2   5   0.1347   0.1892   0.2101  -0.1293   0.0594  -0.0684   0.00    1.6   4.26
2019/08/31 08:19:37.000        -9.5457         5.4483         1.3003   2   5   0.1328   0.1850   0.2036  -0.1267   0.0468  -0.0638   0.00    1.2   4.25
2019/08/31 08:19:39.000        -9.5726         5.4195         1.2227   2   5   0.1310   0.1816   0.1980  -0.1245   0.0359  -0.0605   0.00    1.3   4.24
2019/08/31 08:19:49.000        -9.5507         5.3476         1.0108   2   5   0.1292   0.1777   0.1923  -0.1220   0.0127  -0.0559   0.00    1.1   4.22
2019/08/31 08:19:51.000        -9.5153         5.3160         0.7933   2   5   0.1277   0.1746   0.1873  -0.1201  -0.0233  -0.0529   0.00    1.4   4.22
2019/08/31 08:20:06.000        -9.4223         5.3036         0.6073   2   5   0.1259   0.1708   0.1819  -0.1177  -0.0405  -0.0477   0.00    1.3   4.19
2019/08/31 08:20:08.000        -9.3011         5.3506         0.3632   2   5   0.1244   0.1680   0.1773  -0.1159  -0.0471  -0.0447   0.00    1.3   4.18
2019/08/31 08:20:10.000        -9.2268         5.4107         0.2084   2   5   0.1230   0.1655   0.1731  -0.1143  -0.0518  -0.0421   0.00    1.5   4.18
2019/08/31 08:20:12.000        -9.1161         5.1516        -0.0812   1   5   0.0102   0.0179   0.0241  -0.0116   0.0163  -0.0109   0.00    2.5   4.18
2019/08/31 08:20:21.000        -9.1255         5.1669        -0.0537   1   5   0.0102   0.0178   0.0240  -0.0116   0.0162  -0.0108   0.00    2.0   4.16
2019/08/31 08:20:28.000        -9.1294         5.1460        -0.0534   1   5   0.0102   0.0178   0.0240  -0.0115   0.0161  -0.0107   0.00    2.8   4.14
2019/08/31 08:20:33.000        -9.1155         5.1424        -0.0409   1   5   0.0102   0.0177   0.0239  -0.0115   0.0161  -0.0107   0.00    2.3   4.14
2019/08/31 08:20:36.000        -9.1399         5.3462         0.1607   2   5   0.1166   0.1537   0.1557  -0.1067  -0.0681  -0.0273   0.00    1.9   4.13
2019/08/31 08:20:53.000        -9.1363         5.1612        -0.0264   1   5   0.0101   0.0175   0.0237  -0.0113   0.0158  -0.0105   0.00    2.2   4.10
2019/08/31 08:20:57.000        -9.1973         5.3805         0.1256   2   5   0.1141   0.1491   0.1495  -0.1037  -0.0736  -0.0181   0.00    2.0   4.09
2019/08/31 08:21:05.000        -9.2922         5.4500         0.1765   2   5   0.1130   0.1471   0.1467  -0.1024  -0.0754  -0.0131   0.00    1.8   4.07
2019/08/31 08:21:09.000        -9.3226         5.4950         0.1530   2   5   0.1120   0.1453   0.1440  -0.1013  -0.0765  -0.0084   0.00    1.5   4.07
2019/08/31 08:21:11.000        -9.3894         5.5517         0.1879   2   5   0.1110   0.1438   0.1414  -0.1003  -0.0772  -0.0011   0.00    1.3   4.06
2019/08/31 08:21:18.000        -9.4012         5.5309         0.2569   2   5   0.1100   0.1421   0.1391  -0.0991  -0.0783   0.0103   0.00    1.0   4.05
2019/08/31 08:21:20.000        -9.4070         5.5409         0.3067   2   5   0.1091   0.1406   0.1369  -0.0982  -0.0787   0.0126   0.00    1.0   4.05
2019/08/31 08:21:32.000        -9.4690         5.4802         0.2913   2   5   0.1080   0.1388   0.1349  -0.0970  -0.0800   0.0172   0.00    1.4   4.03
2019/08/31 08:21:35.000        -9.5379         5.4339         0.2966   2   5   0.1072   0.1375   0.1328  -0.0961  -0.0804   0.0186   0.00    1.8   4.02
2019/08/31 08:21:37.000        -9.5862         5.4055         0.3103   2   5   0.1063   0.1362   0.1308  -0.0952  -0.0805   0.0195   0.00    1.7   4.02
2019/08/31 08:21:40.000        -9.6003         5.3674         0.3017   2   5   0.1055   0.1349   0.1290  -0.0944  -0.0807   0.0204   0.00    1.2   4.01
2019/08/31 08:21:48.000        -9.6013         5.3490         0.3049   2   5   0.1046   0.1335   0.1273  -0.0934  -0.0813   0.0221   0.00    1.1   4.00
2019/08/31 08:21:54.000        -9.5504         5.3479         0.2655   2   5   0.1038   0.1322   0.1257  -0.0926  -0.0816   0.0233   0.00    1.0   3.99
2019/08/31 08:21:57.000        -9.4974         5.3223         0.2941   2   5   0.1030   0.1311   0.1241  -0.0918  -0.0816   0.0239   0.00    1.0   3.98
2019/08/31 08:22:06.000        -9.5429         5.3591         0.2789   2   5   0.1022   0.1297   0.1226  -0.0909  -0.0821   0.0252   0.00    1.1   3.97
2019/08/31 08:22:40.000        -9.5790         5.2889         0.2906   2   5   0.1011   0.1275   0.1217  -0.0895  -0.0842   0.0295   0.00    1.5   3.91
2019/08/31 08:22:51.000        -9.5507         5.2628         0.2409   2   5   0.1003   0.1262   0.1201  -0.0887  -0.0847   0.0305   0.00    1.4   3.89
2019/08/31 08:22:58.000        -9.5313         5.2859         0.2316   2   5   0.0995   0.1251   0.1184  -0.0879  -0.0848   0.0310   0.00    1.2   3.88
2019/08/31 08:23:05.000        -9.5092         5.2743         0.2058   2   5   0.0988   0.1240   0.1168  -0.0872  -0.0849   0.0314   0.00    1.0   3.87
2019/08/31 08:23:07.000        -9.5222         5.3034         0.1233   2   5   0.0981   0.1231   0.1152  -0.0866  -0.0846   0.0313   0.00    1.1   3.87
2019/08/31 08:23:15.000        -9.4560         5.2873         0.1029   2   5   0.0974   0.1221   0.1138  -0.0858  -0.0846   0.0317   0.00    1.5   3.86
2019/08/31 08:23:17.000        -9.4610         5.2937         0.1061   2   5   0.0968   0.1212   0.1123  -0.0853  -0.0843   0.0316   0.00    1.6   3.85
2019/08/31 08:23:29.000        -9.4880         5.3476         0.0565   2   6   0.0958   0.1196   0.1112  -0.0841  -0.0844   0.0321   0.00    1.6   2.17
2019/08/31 08:23:35.000        -9.1223         5.1132        -0.0795   1   6   0.0076   0.0088   0.0161  -0.0053  -0.0038   0.0025   0.00    2.2   2.17
2019/08/31 08:23:41.000        -9.1166         5.1138        -0.0844   1   6   0.0076   0.0088   0.0161  -0.0052  -0.0039   0.0025   0.00    2.4   2.18
2019/08/31 08:23:47.000        -9.1197         5.1165        -0.0817   1   6   0.0075   0.0088   0.0161  -0.0053  -0.0038   0.0027   0.00    2.2   2.18
2019/08/31 08:23:58.000        -9.4502         5.4215        -0.0519   2   6   0.0924   0.1141   0.1054  -0.0800  -0.0840   0.0325   0.00    1.7   2.18
2019/08/31 08:24:02.000        -9.4736         5.4823        -0.0901   2   6   0.0917   0.1129   0.1042  -0.0791  -0.0835   0.0321   0.00    1.3   2.18
2019/08/31 08:24:22.000        -9.5278         5.5042        -0.0881   2   6   0.0908   0.1115   0.1034  -0.0781  -0.0835   0.0324   0.00    1.1   2.19
2019/08/31 08:24:28.000        -9.5380         5.4862        -0.0732   2   6   0.0899   0.1102   0.1021  -0.0770  -0.0830   0.0319   0.00    1.1   2.19
2019/08/31 08:24:35.000        -9.5269         5.4734        -0.0732   2   6   0.0891   0.1089   0.1010  -0.0760  -0.0825   0.0315   0.00    1.3   2.19
2019/08/31 08:24:43.000        -9.4958         5.4828        -0.1087   2   6   0.0883   0.1075   0.0999  -0.0750  -0.0819   0.0310   0.00    1.5   2.20
2019/08/31 08:24:52.000        -9.4646         5.5017        -0.1787   2   6   0.0874   0.1062   0.0989  -0.0739  -0.0814   0.0306   0.00    1.8   2.20
2019/08/31 08:25:06.000        -9.4538         5.5135        -0.1705   2   6   0.0865   0.1047   0.0980  -0.0727  -0.0809   0.0302   0.00    1.8   2.20
2019/08/31 08:25:09.000        -9.4637         5.5167        -0.1750   2   6   0.0857   0.1033   0.0967  -0.0716  -0.0802   0.0293   0.00    1.8   2.20
2019/08/31 08:25:26.000        -9.4856         5.5403        -0.1833   2   6   0.0848   0.1017   0.0959  -0.0704  -0.0797   0.0289   0.00    1.7   2.21
2019/08/31 08:25:41.000        -9.4494         5.5409        -0.2029   2   6   0.0838   0.1000   0.0950  -0.0690  -0.0791   0.0282   0.00    1.9   2.22
2019/08/31 08:25:57.000        -9.1257         5.1107        -0.0317   1   6   0.0075   0.0086   0.0162  -0.0051  -0.0042   0.0029   0.00    2.2   2.22
2019/08/31 08:25:59.000        -9.1265         5.1130        -0.0253   1   6   0.0074   0.0085   0.0162  -0.0051  -0.0041   0.0031   0.00    2.1   2.22
2019/08/31 08:26:01.000        -9.3831         5.5944        -0.2952   2   6   0.0808   0.0949   0.0915  -0.0647  -0.0764   0.0247   0.00    2.0   2.22
2019/08/31 08:26:13.000        -9.3953         5.5858        -0.2832   2   6   0.0799   0.0932   0.0906  -0.0634  -0.0756   0.0237   0.00    1.9   2.23
2019/08/31 08:26:16.000        -9.1186         5.1131        -0.0236   1   6   0.0075   0.0085   0.0162  -0.0050  -0.0043   0.0029   0.00    2.0   2.23
2019/08/31 08:26:20.000        -9.1183         5.1102        -0.0252   1   6   0.0075   0.0085   0.0162  -0.0049  -0.0043   0.0029   0.00    2.1   2.23
2019/08/31 08:26:29.000        -9.1205         5.1116        -0.0360   1   6   0.0075   0.0085   0.0162  -0.0049  -0.0043   0.0030   0.00    2.7   2.23
2019/08/31 08:26:33.000        -9.1215         5.1164        -0.0252   1   6   0.0075   0.0085   0.0162  -0.0050  -0.0043   0.0030   0.00    2.6   2.23
2019/08/31 08:26:38.000        -9.1243         5.1172        -0.0292   1   6   0.0075   0.0085   0.0162  -0.0050  -0.0044   0.0030   0.00    2.4   2.24
2019/08/31 08:26:54.000        -9.1136         5.1178        -0.0133   1   6   0.0075   0.0085   0.0163  -0.0049  -0.0044   0.0030   0.00    2.3   2.24
2019/08/31 08:27:13.000        -9.1155         5.1189        -0.0171   1   6   0.0074   0.0085   0.0162  -0.0049  -0.0045   0.0031   0.00    2.1   2.25
2019/08/31 08:27:18.000        -9.1097         5.1121        -0.0077   1   6   0.0074   0.0085   0.0163  -0.0049  -0.0045   0.0031   0.00    2.0   2.25
2019/08/31 08:27:23.000        -9.1092         5.1108        -0.0061   1   6   0.0075   0.0084   0.0162  -0.0049  -0.0045   0.0030   0.00    2.1   2.25
2019/08/31 08:27:28.000        -9.1117         5.1123        -0.0168   1   6   0.0075   0.0085   0.0163  -0.0049  -0.0045   0.0031   0.00    2.1   2.25
2019/08/31 08:27:31.000        -9.1102         5.1172        -0.0238   1   6   0.0073   0.0084   0.0163  -0.0049  -0.0044   0.0032   0.00    5.7   2.25
2019/08/31 08:27:33.000        -9.1060         5.1168        -0.0354   1   6   0.0075   0.0084   0.0163  -0.0048  -0.0045   0.0030   0.00    5.5   2.26
2019/08/31 08:27:39.000        -9.1055         5.1196        -0.0193   1   6   0.0074   0.0084   0.0163  -0.0049  -0.0045   0.0032   0.00    5.6   2.26
2019/08/31 08:27:42.000        -9.1035         5.1227        -0.0347   1   6   0.0074   0.0084   0.0163  -0.0049  -0.0045   0.0031   0.00    5.4   2.26
2019/08/31 08:27:44.000        -9.1071         5.1179        -0.0168   1   6   0.0074   0.0083   0.0163  -0.0049  -0.0045   0.0031   0.00    5.4   2.26
2019/08/31 08:27:49.000        -9.1102         5.1190        -0.0296   1   6   0.0074   0.0084   0.0163  -0.0049  -0.0045   0.0031   0.00    5.7   2.26
2019/08/31 08:27:52.000        -9.0977         5.1190        -0.0332   1   6   0.0073   0.0084   0.0163  -0.0049  -0.0045   0.0032   0.00    5.7   2.26
2019/08/31 08:27:55.000        -9.1065         5.1158        -0.0261   1   6   0.0075   0.0084   0.0163  -0.0048  -0.0046   0.0030   0.00    6.0   2.26
2019/08/31 08:27:57.000        -9.1059         5.1227        -0.0414   1   6   0.0074   0.0084   0.0163  -0.0049  -0.0045   0.0031   0.00    6.2   2.26
2019/08/31 08:28:01.000        -9.1086         5.1181        -0.0294   1   6   0.0074   0.0083   0.0163  -0.0049  -0.0045   0.0031   0.00   41.8   2.27
2019/08/31 08:28:07.000        -9.0986         5.1141        -0.0240   1   6   0.0073   0.0083   0.0163  -0.0049  -0.0045   0.0032   0.00   63.7   2.27
2019/08/31 08:28:18.000        -9.0950         5.1199        -0.0339   1   6   0.0073   0.0083   0.0163  -0.0049  -0.0046   0.0032   0.00   73.5   2.27
2019/08/31 08:28:21.000        -9.0917         5.1177        -0.0373   1   6   0.0074   0.0083   0.0163  -0.0048  -0.0046   0.0031   0.00   81.9   2.27
2019/08/31 08:28:23.000        -9.1037         5.1175        -0.0321   1   6   0.0074   0.0083   0.0163  -0.0048  -0.0046   0.0032   0.00   90.1   2.27
2019/08/31 08:28:26.000        -9.0982         5.1153        -0.0525   1   6   0.0075   0.0084   0.0163  -0.0048  -0.0047   0.0030   0.00   96.9   2.27
2019/08/31 08:28:28.000        -9.0974         5.1214        -0.0668   1   6   0.0073   0.0083   0.0163  -0.0049  -0.0046   0.0032   0.00  106.6   2.28
2019/08/31 08:28:30.000        -9.0957         5.1216        -0.0733   1   6   0.0074   0.0083   0.0163  -0.0048  -0.0046   0.0032   0.00  111.5   2.28
2019/08/31 08:28:34.000        -9.0994         5.1155        -0.0712   1   6   0.0074   0.0083   0.0163  -0.0049  -0.0046   0.0032   0.00  118.2   2.28
2019/08/31 08:28:37.000        -9.0918         5.1209        -0.0776   1   6   0.0074   0.0083   0.0163  -0.0048  -0.0046   0.0032   0.00  130.4   2.28
2019/08/31 08:28:40.000        -9.0859         5.1165        -0.0798   1   6   0.0074   0.0083   0.0163  -0.0048  -0.0046   0.0033   0.00  142.8   2.28
2019/08/31 08:28:44.000        -9.0941         5.1109        -0.0695   1   6   0.0074   0.0083   0.0163  -0.0048  -0.0047   0.0031   0.00  150.1   2.28
2019/08/31 08:28:47.000        -9.1018         5.1194        -0.0981   1   6   0.0074   0.0083   0.0163  -0.0048  -0.0046   0.0032   0.00  153.0   2.28
2019/08/31 08:28:51.000        -9.0968         5.1137        -0.1014   1   6   0.0073   0.0083   0.0163  -0.0049  -0.0046   0.0033   0.00  152.7   2.28
2019/08/31 08:28:54.000        -9.0991         5.1171        -0.0858   1   6   0.0074   0.0083   0.0164  -0.0048  -0.0046   0.0032   0.00  159.0   2.29
2019/08/31 08:28:57.000        -9.0994         5.1156        -0.0676   1   6   0.0073   0.0082   0.0164  -0.0048  -0.0046   0.0033   0.00  155.9   2.29
2019/08/31 08:29:01.000        -9.1064         5.1183        -0.0739   1   6   0.0074   0.0083   0.0163  -0.0048  -0.0047   0.0033   0.00  156.3   2.29
2019/08/31 08:29:04.000        -9.1420         5.1077        -0.0347   1   6   0.0074   0.0083   0.0163  -0.0048  -0.0047   0.0032   0.00  127.6   2.29
2019/08/31 08:29:06.000        -9.1415         5.1043        -0.0148   1   6   0.0074   0.0083   0.0164  -0.0047  -0.0047   0.0032   0.00  104.8   2.29
2019/08/31 08:29:09.000        -9.1011         5.1125        -0.0745   1   6   0.0073   0.0082   0.0164  -0.0048  -0.0047   0.0033   0.00  107.3   2.29
2019/08/31 08:29:11.000        -9.1029         5.1157        -0.0711   1   6   0.0074   0.0083   0.0163  -0.0047  -0.0047   0.0032   0.00  104.3   2.29
2019/08/31 08:29:13.000        -9.1087         5.1122        -0.0774   1   6   0.0073   0.0082   0.0163  -0.0048  -0.0047   0.0033   0.00   98.9   2.29
2019/08/31 08:29:18.000        -9.0969         5.1096        -0.0734   1   6   0.0074   0.0082   0.0164  -0.0048  -0.0047   0.0032   0.00   99.2   2.29
2019/08/31 08:29:21.000        -9.0892         5.1152        -0.0659   1   6   0.0074   0.0082   0.0164  -0.0048  -0.0047   0.0033   0.00  102.3   2.30
2019/08/31 08:29:24.000        -9.0941         5.1136        -0.0878   1   6   0.0073   0.0082   0.0164  -0.0048  -0.0047   0.0033   0.00  103.1   2.30
2019/08/31 08:29:35.000        -9.1068         5.1175        -0.0751   1   6   0.0097   0.0083   0.0183  -0.0037  -0.0058  -0.0064   0.00  101.8   2.30
2019/08/31 08:29:37.000        -9.0915         5.1126        -0.0738   1   6   0.0074   0.0083   0.0164  -0.0047  -0.0048   0.0032   0.00  104.8   2.30
2019/08/31 08:29:40.000        -9.0933         5.1130        -0.0845   1   6   0.0074   0.0082   0.0164  -0.0047  -0.0047   0.0033   0.00  105.9   2.30
2019/08/31 08:29:43.000        -9.1009         5.1147        -0.0813   1   6   0.0073   0.0082   0.0164  -0.0048  -0.0047   0.0033   0.00  101.6   2.30
2019/08/31 08:29:45.000        -9.0986         5.1204        -0.0924   1   6   0.0072   0.0082   0.0164  -0.0048  -0.0047   0.0035   0.00   96.8   2.31
2019/08/31 08:29:48.000        -9.0942         5.1150        -0.0836   1   6   0.0073   0.0082   0.0164  -0.0047  -0.0048   0.0034   0.00   94.7   2.31
2019/08/31 08:29:50.000        -9.0946         5.1140        -0.0837   1   6   0.0073   0.0082   0.0164  -0.0047  -0.0048   0.0033   0.00   93.0   2.31
2019/08/31 08:29:53.000        -9.0944         5.1124        -0.0778   1   6   0.0072   0.0082   0.0164  -0.0048  -0.0047   0.0034   0.00   91.9   2.31
2019/08/31 08:29:56.000        -9.0984         5.1218        -0.0683   1   6   0.0074   0.0082   0.0164  -0.0046  -0.0048   0.0032   0.00   91.4   2.31
2019/08/31 08:29:58.000        -9.0990         5.1166        -0.0925   1   6   0.0073   0.0082   0.0164  -0.0047  -0.0047   0.0033   0.00   89.9   2.31
2019/08/31 08:30:19.000        -9.1093         5.1106        -0.0736   1   6   0.0073   0.0081   0.0164  -0.0047  -0.0048   0.0034   0.00   86.5   2.32
2019/08/31 08:30:21.000        -9.1154         5.1134        -0.0698   1   6   0.0074   0.0082   0.0164  -0.0047  -0.0049   0.0033   0.00   84.8   2.32
2019/08/31 08:30:24.000        -9.1116         5.1109        -0.0742   1   6   0.0074   0.0081   0.0164  -0.0047  -0.0048   0.0033   0.00   84.0   2.32
2019/08/31 08:30:29.000        -9.1113         5.1043        -0.0564   1   6   0.0074   0.0082   0.0164  -0.0046  -0.0049   0.0034   0.00   83.8   2.32
2019/08/31 08:30:38.000        -9.1122         5.1070        -0.0895   1   6   0.0072   0.0081   0.0165  -0.0047  -0.0049   0.0034   0.00   81.0   2.33
2019/08/31 08:30:40.000        -9.1110         5.1122        -0.0749   1   6   0.0073   0.0081   0.0164  -0.0047  -0.0049   0.0034   0.00   81.8   2.33
2019/08/31 08:30:43.000        -9.1120         5.1069        -0.0751   1   6   0.0074   0.0081   0.0165  -0.0046  -0.0049   0.0034   0.00   80.3   2.33
2019/08/31 08:30:48.000        -9.1037         5.1079        -0.0821   1   6   0.0073   0.0081   0.0165  -0.0047  -0.0049   0.0034   0.00   78.8   2.33
2019/08/31 08:30:51.000        -9.1072         5.1028        -0.0589   1   6   0.0073   0.0081   0.0165  -0.0047  -0.0048   0.0035   0.00   76.4   2.33
2019/08/31 08:30:55.000        -9.1040         5.1086        -0.0665   1   6   0.0074   0.0081   0.0165  -0.0046  -0.0049   0.0034   0.00   77.5   2.33
2019/08/31 08:30:58.000        -9.1097         5.1061        -0.0777   1   6   0.0073   0.0081   0.0165  -0.0047  -0.0049   0.0034   0.00   76.7   2.33
2019/08/31 08:31:01.000        -9.1037         5.1028        -0.0650   1   6   0.0074   0.0081   0.0165  -0.0046  -0.0049   0.0033   0.00   76.5   2.34
2019/08/31 08:31:03.000        -9.1022         5.1039        -0.0671   1   6   0.0074   0.0081   0.0165  -0.0046  -0.0049   0.0035   0.00   75.0   2.34
2019/08/31 08:31:07.000        -9.1097         5.1111        -0.0853   1   6   0.0074   0.0081   0.0165  -0.0046  -0.0049   0.0034   0.00   75.2   2.34
2019/08/31 08:31:11.000        -9.1112         5.1096        -0.0805   1   6   0.0073   0.0080   0.0165  -0.0046  -0.0049   0.0035   0.00   74.9   2.34
2019/08/31 08:31:13.000        -9.1078         5.1094        -0.0674   1   6   0.0072   0.0080   0.0165  -0.0047  -0.0048   0.0036   0.00   75.9   2.34
2019/08/31 08:31:15.000        -9.1038         5.1065        -0.0778   1   6   0.0072   0.0080   0.0165  -0.0047  -0.0049   0.0036   0.00   75.9   2.34
2019/08/31 08:31:17.000        -9.1100         5.1050        -0.0832   1   6   0.0073   0.0081   0.0165  -0.0046  -0.0049   0.0034   0.00   75.1   2.34
2019/08/31 08:31:23.000        -9.1087         5.1107        -0.0821   1   6   0.0074   0.0081   0.0165  -0.0046  -0.0050   0.0033   0.00   76.7   2.34
2019/08/31 08:31:25.000        -9.1051         5.1054        -0.0846   1   6   0.0075   0.0081   0.0165  -0.0046  -0.0050   0.0033   0.00   76.8   2.34
2019/08/31 08:31:27.000        -9.1028         5.1026        -0.0769   1   6   0.0074   0.0080   0.0165  -0.0046  -0.0049   0.0034   0.00   77.4   2.35
2019/08/31 08:31:30.000        -9.1021         5.1069        -0.0881   1   6   0.0073   0.0080   0.0165  -0.0046  -0.0049   0.0035   0.00   78.3   2.35
2019/08/31 08:31:32.000        -9.1032         5.1077        -0.0780   1   6   0.0074   0.0081   0.0165  -0.0046  -0.0050   0.0034   0.00   80.2   2.35
2019/08/31 08:31:34.000        -9.1037         5.1032        -0.0724   1   6   0.0073   0.0080   0.0165  -0.0046  -0.0049   0.0035   0.00   79.1   2.35
2019/08/31 08:31:37.000        -9.0989         5.1107        -0.0942   1   6   0.0073   0.0080   0.0165  -0.0046  -0.0050   0.0034   0.00   80.3   2.35
2019/08/31 08:31:40.000        -9.1023         5.1090        -0.0848   1   6   0.0074   0.0080   0.0165  -0.0046  -0.0050   0.0034   0.00   81.6   2.35
2019/08/31 08:31:49.000        -9.1003         5.1027        -0.0885   1   6   0.0072   0.0080   0.0165  -0.0046  -0.0050   0.0036   0.00   81.8   2.35
2019/08/31 08:31:54.000        -9.1091         5.1087        -0.0767   1   6   0.0074   0.0080   0.0165  -0.0045  -0.0050   0.0035   0.00   81.9   2.36
2019/08/31 08:31:58.000        -9.0988         5.1121        -0.0605   1   6   0.0073   0.0080   0.0166  -0.0046  -0.0050   0.0035   0.00   82.9   2.36
2019/08/31 08:32:00.000        -9.0993         5.1132        -0.0693   1   6   0.0073   0.0080   0.0166  -0.0046  -0.0050   0.0036   0.00   84.5   2.36
2019/08/31 08:32:04.000        -9.0996         5.1085        -0.0713   1   6   0.0074   0.0081   0.0165  -0.0045  -0.0051   0.0035   0.00   84.7   2.36
2019/08/31 08:32:06.000        -9.0976         5.1082        -0.0808   1   6   0.0073   0.0080   0.0165  -0.0045  -0.0051   0.0035   0.00   86.1   2.36
2019/08/31 08:32:08.000        -9.0973         5.1102        -0.0825   1   6   0.0073   0.0080   0.0165  -0.0044  -0.0051   0.0035   0.00   86.8   2.36
2019/08/31 08:32:11.000        -9.1037         5.1050        -0.0755   1   6   0.0074   0.0080   0.0166  -0.0045  -0.0051   0.0034   0.00   87.1   2.36
2019/08/31 08:32:14.000        -9.1071         5.1124        -0.0821   1   6   0.0074   0.0080   0.0166  -0.0045  -0.0051   0.0035   0.00   87.6   2.36
2019/08/31 08:32:17.000        -9.0961         5.1100        -0.0811   1   6   0.0073   0.0080   0.0165  -0.0045  -0.0051   0.0035   0.00   88.2   2.37
2019/08/31 08:32:19.000        -9.0991         5.1092        -0.0722   1   6   0.0073   0.0080   0.0166  -0.0045  -0.0050   0.0036   0.00   88.3   2.37
2019/08/31 08:32:22.000        -9.0975         5.1073        -0.0731   1   6   0.0073   0.0080   0.0166  -0.0045  -0.0051   0.0036   0.00   87.4   2.37
2019/08/31 08:32:24.000        -9.0977         5.1083        -0.0662   1   6   0.0073   0.0080   0.0166  -0.0046  -0.0051   0.0036   0.00   88.0   2.37
2019/08/31 08:32:27.000        -9.1024         5.1128        -0.0786   1   6   0.0073   0.0080   0.0166  -0.0046  -0.0051   0.0036   0.00   87.1   2.37
2019/08/31 08:32:29.000        -9.0977         5.1082        -0.0688   1   6   0.0073   0.0080   0.0166  -0.0045  -0.0051   0.0035   0.00   85.9   2.37
2019/08/31 08:32:31.000        -9.1055         5.1100        -0.0585   1   6   0.0073   0.0080   0.0166  -0.0045  -0.0051   0.0036   0.00   83.5   2.37
2019/08/31 08:32:34.000        -9.0987         5.1064        -0.0493   1   6   0.0073   0.0080   0.0166  -0.0045  -0.0051   0.0035   0.00   80.0   2.37
2019/08/31 08:32:39.000        -9.0959         5.1053        -0.0504   1   6   0.0073   0.0080   0.0166  -0.0045  -0.0051   0.0036   0.00   78.4   2.38
2019/08/31 08:32:41.000        -9.1014         5.1029        -0.0519   1   6   0.0073   0.0079   0.0166  -0.0046  -0.0051   0.0036   0.00   75.8   2.38
2019/08/31 08:32:44.000        -9.1053         5.1041        -0.0581   1   6   0.0073   0.0079   0.0166  -0.0045  -0.0051   0.0036   0.00   72.9   2.38
2019/08/31 08:32:47.000        -9.1020         5.1034        -0.0534   1   6   0.0073   0.0080   0.0166  -0.0045  -0.0051   0.0036   0.00   69.8   2.38
2019/08/31 08:32:49.000        -9.1021         5.1093        -0.0490   1   6   0.0073   0.0079   0.0166  -0.0045  -0.0051   0.0036   0.00   66.9   2.38
2019/08/31 08:32:52.000        -9.1050         5.1047        -0.0538   1   6   0.0074   0.0080   0.0166  -0.0045  -0.0052   0.0035   0.00   65.2   2.38
2019/08/31 08:32:54.000        -9.1008         5.1038        -0.0493   1   6   0.0073   0.0079   0.0166  -0.0045  -0.0051   0.0036   0.00   63.2   2.38
2019/08/31 08:32:57.000        -9.1031         5.1013        -0.0470   1   6   0.0072   0.0079   0.0166  -0.0045  -0.0051   0.0037   0.00   61.1   2.38
2019/08/31 08:32:59.000        -9.1064         5.1075        -0.0636   1   6   0.0073   0.0079   0.0166  -0.0045  -0.0052   0.0036   0.00   59.0   2.38
2019/08/31 08:33:01.000        -9.1104         5.1001        -0.0401   1   6   0.0073   0.0079   0.0166  -0.0045  -0.0052   0.0036   0.00   56.5   2.38
2019/08/31 08:33:03.000        -9.1162         5.1049        -0.0461   1   6   0.0072   0.0079   0.0166  -0.0046  -0.0051   0.0036   0.00   54.3   2.39
2019/08/31 08:33:07.000        -9.1135         5.1048        -0.0581   1   6   0.0073   0.0079   0.0166  -0.0044  -0.0052   0.0037   0.00   53.0   2.39
2019/08/31 08:33:09.000        -9.1044         5.1091        -0.0599   1   6   0.0073   0.0079   0.0166  -0.0044  -0.0052   0.0035   0.00   51.8   2.39
2019/08/31 08:33:12.000        -9.1105         5.1025        -0.0399   1   6   0.0073   0.0079   0.0166  -0.0045  -0.0051   0.0036   0.00   50.2   2.39
2019/08/31 08:33:14.000        -9.0980         5.1003        -0.0537   1   6   0.0072   0.0079   0.0166  -0.0046  -0.0051   0.0037   0.00   49.2   2.39
2019/08/31 08:33:16.000        -9.1054         5.1088        -0.0643   1   6   0.0072   0.0079   0.0166  -0.0045  -0.0051   0.0037   0.00   48.1   2.39
2019/08/31 08:33:21.000        -9.1101         5.1092        -0.0454   1   6   0.0072   0.0079   0.0167  -0.0045  -0.0051   0.0037   0.00   45.6   2.39
2019/08/31 08:33:25.000        -9.1054         5.1082        -0.0558   1   6   0.0073   0.0079   0.0167  -0.0044  -0.0052   0.0036   0.00   43.2   2.39
2019/08/31 08:33:27.000        -9.1065         5.1129        -0.0440   1   6   0.0072   0.0079   0.0166  -0.0044  -0.0052   0.0036   0.00   41.4   2.40
2019/08/31 08:33:32.000        -9.1035         5.1095        -0.0553   1   6   0.0074   0.0079   0.0167  -0.0044  -0.0052   0.0036   0.00   40.5   2.40
2019/08/31 08:33:35.000        -9.1100         5.1079        -0.0515   1   6   0.0073   0.0079   0.0167  -0.0045  -0.0052   0.0037   0.00   39.5   2.40
2019/08/31 08:33:39.000        -9.1042         5.1109        -0.0350   1   6   0.0073   0.0079   0.0167  -0.0045  -0.0052   0.0036   0.00   38.0   2.40
2019/08/31 08:33:42.000        -9.1035         5.1011        -0.0291   1   6   0.0073   0.0079   0.0167  -0.0044  -0.0052   0.0036   0.00   36.6   2.40
2019/08/31 08:33:45.000        -9.1098         5.1088        -0.0512   1   6   0.0072   0.0079   0.0167  -0.0045  -0.0052   0.0037   0.00   35.2   2.40
2019/08/31 08:33:48.000        -9.1047         5.1082        -0.0543   1   6   0.0073   0.0079   0.0167  -0.0044  -0.0052   0.0037   0.00   34.0   2.40
2019/08/31 08:33:50.000        -9.1113         5.1109        -0.0390   1   6   0.0073   0.0079   0.0167  -0.0044  -0.0052   0.0037   0.00   32.6   2.41
2019/08/31 08:33:52.000        -9.1109         5.1099        -0.0437   1   6   0.0073   0.0079   0.0167  -0.0043  -0.0053   0.0037   0.00   31.6   2.41
2019/08/31 08:33:57.000        -9.1105         5.1060        -0.0385   1   6   0.0074   0.0079   0.0167  -0.0044  -0.0053   0.0036   0.00   30.5   2.41
2019/08/31 08:34:00.000        -9.0890         5.1100        -0.0591   1   6   0.0096   0.0080   0.0187  -0.0035  -0.0062  -0.0062   0.00   30.5   2.41
2019/08/31 08:34:03.000        -9.1148         5.1037        -0.0278   1   6   0.0072   0.0079   0.0167  -0.0045  -0.0052   0.0037   0.00   29.3   2.41
2019/08/31 08:34:05.000        -9.1111         5.1044        -0.0341   1   6   0.0073   0.0078   0.0167  -0.0044  -0.0052   0.0037   0.00   28.2   2.41
2019/08/31 08:34:07.000        -9.1194         5.1047        -0.0354   1   6   0.0072   0.0079   0.0167  -0.0044  -0.0052   0.0036   0.00   26.9   2.41
2019/08/31 08:34:13.000        -9.1066         5.1104        -0.0485   1   6   0.0072   0.0078   0.0167  -0.0044  -0.0052   0.0037   0.00   26.5   2.42
2019/08/31 08:34:15.000        -9.1143         5.1110        -0.0409   1   6   0.0073   0.0079   0.0167  -0.0043  -0.0053   0.0036   0.00   26.0   2.42
2019/08/31 08:34:17.000        -9.1048         5.1070        -0.0388   1   6   0.0073   0.0079   0.0167  -0.0043  -0.0053   0.0037   0.00   25.3   2.42
2019/08/31 08:34:19.000        -9.1110         5.1076        -0.0482   1   6   0.0073   0.0078   0.0167  -0.0044  -0.0053   0.0036   0.00   30.2   2.42
2019/08/31 08:34:23.000        -9.1090         5.1066        -0.0615   1   6   0.0073   0.0078   0.0167  -0.0044  -0.0053   0.0038   0.00   35.2   2.42
2019/08/31 08:34:25.000        -9.1091         5.1036        -0.0421   1   6   0.0073   0.0078   0.0168  -0.0043  -0.0053   0.0037   0.00   40.1   2.42
2019/08/31 08:34:29.000        -9.0839         5.1033        -0.0778   1   5   0.0096   0.0079   0.0187  -0.0034  -0.0062  -0.0062   0.00   48.6   2.42
2019/08/31 08:34:32.000        -9.0907         5.1056        -0.0658   1   5   0.0096   0.0079   0.0187  -0.0034  -0.0062  -0.0062   0.00   54.9   2.42
2019/08/31 08:34:34.000        -9.0869         5.1091        -0.0801   1   5   0.0096   0.0079   0.0187  -0.0034  -0.0062  -0.0062   0.00   61.4   2.42
2019/08/31 08:34:36.000        -9.0848         5.1060        -0.0560   1   5   0.0096   0.0079   0.0187  -0.0034  -0.0062  -0.0062   0.00   68.0   2.43
2019/08/31 08:34:39.000        -9.0875         5.1127        -0.0825   1   5   0.0096   0.0079   0.0187  -0.0034  -0.0062  -0.0062   0.00   75.0   2.43
2019/08/31 08:34:41.000        -9.0950         5.1179        -0.0675   2   6   0.0096   0.0080   0.0188  -0.0034  -0.0062  -0.0062   0.00    1.2   2.43
2019/08/31 08:34:47.000        -9.1004         5.1168        -0.0562   2   6   0.0086   0.0079   0.0179  -0.0039  -0.0057  -0.0036   0.00    1.4   2.43
2019/08/31 08:34:53.000        -9.1010         5.1177        -0.0737   2   6   0.0081   0.0079   0.0175  -0.0041  -0.0056  -0.0019   0.00    1.5   2.43
2019/08/31 08:34:56.000        -9.1004         5.1189        -0.0688   2   6   0.0079   0.0079   0.0174  -0.0041  -0.0055   0.0007   0.00    1.6   2.43
2019/08/31 08:35:00.000        -9.0935         5.1173        -0.0599   2   6   0.0078   0.0078   0.0173  -0.0043  -0.0055   0.0018   0.00    1.8   2.44
2019/08/31 08:35:03.000        -9.0906         5.1141        -0.0613   2   6   0.0078   0.0079   0.0172  -0.0042  -0.0055   0.0022   0.00    1.8   2.44
2019/08/31 08:35:06.000        -9.0926         5.1176        -0.0694   2   6   0.0076   0.0078   0.0172  -0.0043  -0.0054   0.0025   0.00    1.9   2.44
2019/08/31 08:35:13.000        -9.0821         5.1194        -0.0628   2   6   0.0076   0.0078   0.0172  -0.0042  -0.0054   0.0027   0.00    1.9   2.44
2019/08/31 08:35:41.000        -9.0744         5.1078        -0.0808   1   5   0.0096   0.0078   0.0188  -0.0033  -0.0063  -0.0062   0.00   82.3   2.45
2019/08/31 08:35:43.000        -9.0777         5.1125        -0.0923   1   5   0.0095   0.0078   0.0189  -0.0033  -0.0063  -0.0062   0.00   82.3   2.46
2019/08/31 08:35:46.000        -9.0774         5.1093        -0.0758   1   5   0.0095   0.0078   0.0189  -0.0034  -0.0063  -0.0062   0.00   82.4   2.46
2019/08/31 08:35:52.000        -9.0717         5.1145        -0.0856   1   5   0.0095   0.0078   0.0189  -0.0034  -0.0063  -0.0061   0.00   82.5   2.46
2019/08/31 08:35:54.000        -9.0773         5.1134        -0.0923   1   5   0.0096   0.0078   0.0189  -0.0033  -0.0063  -0.0062   0.00   82.4   2.46
2019/08/31 08:35:56.000        -9.0854         5.1234        -0.0769   2   6   0.0096   0.0078   0.0190  -0.0034  -0.0062  -0.0062   0.00    1.1   2.46
2019/08/31 08:35:59.000        -9.0896         5.1218        -0.0645   2   6   0.0085   0.0078   0.0180  -0.0039  -0.0058  -0.0035   0.00    1.0   2.46
2019/08/31 08:36:06.000        -9.0881         5.1248        -0.0624   2   6   0.0081   0.0078   0.0177  -0.0041  -0.0057  -0.0018   0.00    1.1   2.47
2019/08/31 08:36:08.000        -9.0903         5.1289        -0.0649   2   6   0.0079   0.0078   0.0175  -0.0041  -0.0056   0.0012   0.00    1.0   2.47
2019/08/31 08:36:10.000        -9.0847         5.1271        -0.0624   2   6   0.0079   0.0078   0.0174  -0.0041  -0.0056   0.0017   0.00    1.1   2.47
2019/08/31 08:36:13.000        -9.0886         5.1278        -0.0583   2   6   0.0076   0.0077   0.0174  -0.0042  -0.0055   0.0024   0.00    1.1   2.47
2019/08/31 08:36:22.000        -9.0867         5.1277        -0.0541   2   6   0.0077   0.0078   0.0173  -0.0042  -0.0056   0.0025   0.00    1.0   2.47
2019/08/31 08:36:23.000        -9.0932         5.1281        -0.0555   2   6   0.0077   0.0077   0.0173  -0.0041  -0.0055   0.0027   0.00    1.0   2.47
2019/08/31 08:36:24.000        -9.0897         5.1339        -0.0695   2   6   0.0076   0.0077   0.0173  -0.0042  -0.0055   0.0028   0.00    1.1   2.47
2019/08/31 08:36:25.000        -9.0898         5.1299        -0.0525   2   6   0.0075   0.0077   0.0172  -0.0042  -0.0055   0.0031   0.00    1.0   2.47
2019/08/31 08:36:26.000        -9.0913         5.1267        -0.0522   2   6   0.0075   0.0078   0.0172  -0.0042  -0.0056   0.0031   0.00    1.0   2.47
2019/08/31 08:36:27.000        -9.0914         5.1288        -0.0594   2   6   0.0075   0.0078   0.0172  -0.0042  -0.0055   0.0032   0.00    1.1   2.47
2019/08/31 08:36:28.000        -9.0902         5.1272        -0.0511   2   6   0.0074   0.0077   0.0172  -0.0043  -0.0055   0.0032   0.00    1.1   2.48
2019/08/31 08:36:29.000        -9.0906         5.1285        -0.0648   2   6   0.0074   0.0077   0.0172  -0.0042  -0.0055   0.0033   0.00    1.1   2.48
2019/08/31 08:36:30.000        -9.0880         5.1247        -0.0512   2   6   0.0075   0.0077   0.0172  -0.0043  -0.0055   0.0033   0.00    1.1   2.48
2019/08/31 08:36:31.000        -9.0926         5.1265        -0.0623   2   6   0.0074   0.0077   0.0172  -0.0042  -0.0055   0.0033   0.00    1.2   2.48
2019/08/31 08:36:32.000        -9.0910         5.1236        -0.0567   2   6   0.0074   0.0077   0.0172  -0.0043  -0.0055   0.0033   0.00    1.2   2.48
2019/08/31 08:36:33.000        -9.0943         5.1243        -0.0574   2   6   0.0074   0.0077   0.0172  -0.0043  -0.0055   0.0035   0.00    1.2   2.48
2019/08/31 08:36:34.000        -9.0922         5.1251        -0.0519   2   6   0.0073   0.0077   0.0171  -0.0042  -0.0055   0.0035   0.00    1.2   2.48
2019/08/31 08:36:35.000        -9.0950         5.1248        -0.0532   2   6   0.0074   0.0077   0.0172  -0.0043  -0.0055   0.0034   0.00    1.2   2.48
2019/08/31 08:36:36.000        -9.0967         5.1214        -0.0534   2   6   0.0074   0.0077   0.0171  -0.0042  -0.0055   0.0035   0.00    1.2   2.48
2019/08/31 08:36:37.000        -9.0928         5.1230        -0.0529   2   6   0.0074   0.0077   0.0171  -0.0043  -0.0055   0.0034   0.00    1.2   2.48
2019/08/31 08:36:38.000        -9.0959         5.1254        -0.0533   2   6   0.0074   0.0077   0.0171  -0.0042  -0.0055   0.0034   0.00    1.3   2.48
2019/08/31 08:36:39.000        -9.0934         5.1207        -0.0616   2   6   0.0073   0.0077   0.0171  -0.0043  -0.0055   0.0035   0.00    1.3   2.48
2019/08/31 08:36:40.000        -9.0929         5.1240        -0.0528   2   6   0.0073   0.0077   0.0171  -0.0042  -0.0055   0.0036   0.00    1.3   2.48
2019/08/31 08:36:41.000        -9.0965         5.1230        -0.0562   2   6   0.0073   0.0077   0.0171  -0.0042  -0.0055   0.0035   0.00    1.3   2.48
2019/08/31 08:36:42.000        -9.0972         5.1248        -0.0607   2   6   0.0073   0.0077   0.0171  -0.0043  -0.0055   0.0036   0.00    1.3   2.48
2019/08/31 08:36:43.000        -9.0904         5.1214        -0.0536   2   6   0.0073   0.0077   0.0171  -0.0042  -0.0055   0.0036   0.00    1.3   2.48
2019/08/31 08:36:44.000        -9.0987         5.1224        -0.0526   2   6   0.0073   0.0077   0.0171  -0.0043  -0.0055   0.0035   0.00    1.3   2.48
2019/08/31 08:36:45.000        -9.0972         5.1178        -0.0611   2   6   0.0073   0.0077   0.0171  -0.0043  -0.0055   0.0037   0.00    1.3   2.48
2019/08/31 08:36:46.000        -9.0962         5.1232        -0.0617   2   6   0.0073   0.0077   0.0171  -0.0043  -0.0054   0.0036   0.00    1.3   2.48
2019/08/31 08:36:47.000        -9.0966         5.1221        -0.0612   2   6   0.0074   0.0077   0.0171  -0.0043  -0.0055   0.0036   0.00    1.3   2.48
2019/08/31 08:36:48.000        -9.0976         5.1232        -0.0631   2   6   0.0074   0.0077   0.0171  -0.0043  -0.0055   0.0035   0.00    1.3   2.48
2019/08/31 08:36:49.000        -9.0980         5.1248        -0.0547   2   6   0.0073   0.0077   0.0171  -0.0042  -0.0055   0.0036   0.00    1.3   2.48
2019/08/31 08:36:50.000        -9.0986         5.1241        -0.0559   2   6   0.0073   0.0077   0.0171  -0.0043  -0.0055   0.0036   0.00    1.3   2.49
2019/08/31 08:36:51.000        -9.0979         5.1236        -0.0583   2   6   0.0074   0.0077   0.0171  -0.0041  -0.0055   0.0036   0.00    1.3   2.49
2019/08/31 08:36:52.000        -9.1006         5.1259        -0.0510   2   6   0.0073   0.0077   0.0171  -0.0042  -0.0055   0.0036   0.00    1.3   2.49
2019/08/31 08:36:53.000        -9.0987         5.1275        -0.0421   2   6   0.0073   0.0077   0.0171  -0.0043  -0.0055   0.0036   0.00    1.3   2.49
2019/08/31 08:36:54.000        -9.1020         5.1196        -0.0449   2   6   0.0074   0.0077   0.0171  -0.0042  -0.0055   0.0036   0.00    1.3   2.49
2019/08/31 08:36:55.000        -9.1052         5.1249        -0.0458   2   6   0.0073   0.0077   0.0171  -0.0042  -0.0055   0.0036   0.00    1.3   2.49
2019/08/31 08:36:56.000        -9.0989         5.1204        -0.0378   2   6   0.0073   0.0077   0.0171  -0.0043  -0.0055   0.0036   0.00    1.3   2.49
2019/08/31 08:36:57.000        -9.0976         5.1240        -0.0444   2   6   0.0073   0.0077   0.0171  -0.0042  -0.0055   0.0036   0.00    1.3   2.49
2019/08/31 08:36:58.000        -9.0965         5.1231        -0.0398   2   6   0.0072   0.0077   0.0171  -0.0043  -0.0055   0.0037   0.00    1.2   2.49
2019/08/31 08:36:59.000        -9.0947         5.1274        -0.0475   2   6   0.0073   0.0077   0.0171  -0.0043  -0.0055   0.0037   0.00    1.2   2.49
2019/08/31 08:37:00.000        -9.0926         5.1269        -0.0360   2   6   0.0073   0.0077   0.0171  -0.0043  -0.0055   0.0037   0.00    1.2   2.49
2019/08/31 08:37:01.000        -9.0953         5.1298        -0.0451   2   6   0.0075   0.0077   0.0171  -0.0042  -0.0055   0.0036   0.00    1.2   2.49
2019/08/31 08:37:02.000        -9.0927         5.1310        -0.0530   2   6   0.0073   0.0077   0.0171  -0.0042  -0.0055   0.0037   0.00    1.2   2.49
2019/08/31 08:37:03.000        -9.0961         5.1290        -0.0458   2   6   0.0073   0.0077   0.0171  -0.0043  -0.0056   0.0037   0.00    1.2   2.49
2019/08/31 08:37:04.000        -9.0983         5.1294        -0.0489   2   6   0.0074   0.0077   0.0171  -0.0042  -0.0055   0.0036   0.00    1.2   2.49
2019/08/31 08:37:05.000        -9.1023         5.1288        -0.0531   2   6   0.0073   0.0077   0.0171  -0.0042  -0.0055   0.0037   0.00    1.2   2.49
2019/08/31 08:37:06.000        -9.0957         5.1284        -0.0394   2   6   0.0073   0.0077   0.0171  -0.0043  -0.0055   0.0037   0.00    1.2   2.49
2019/08/31 08:37:07.000        -9.0963         5.1249        -0.0425   2   6   0.0072   0.0077   0.0171  -0.0043  -0.0055   0.0037   0.00    1.2   2.49
2019/08/31 08:37:08.000        -9.0969         5.1249        -0.0454   2   6   0.0072   0.0077   0.0171  -0.0043  -0.0055   0.0038   0.00    1.2   2.49
2019/08/31 08:37:09.000        -9.0940         5.1254        -0.0367   2   6   0.0074   0.0076   0.0171  -0.0042  -0.0055   0.0037   0.00    1.2   2.49
2019/08/31 08:37:10.000        -9.1002         5.1278        -0.0459   2   6   0.0073   0.0077   0.0171  -0.0042  -0.0055   0.0037   0.00    1.2   2.49
2019/08/31 08:37:11.000        -9.1027         5.1281        -0.0471   2   6   0.0073   0.0077   0.0171  -0.0043  -0.0055   0.0036   0.00    1.2   2.50
2019/08/31 08:37:12.000        -9.0973         5.1274        -0.0593   2   6   0.0073   0.0076   0.0172  -0.0043  -0.0055   0.0037   0.00    1.2   2.50
2019/08/31 08:37:13.000        -9.0985         5.1287        -0.0501   2   6   0.0073   0.0077   0.0172  -0.0043  -0.0054   0.0038   0.00    1.2   2.50
2019/08/31 08:37:14.000        -9.0985         5.1278        -0.0463   2   6   0.0073   0.0077   0.0172  -0.0042  -0.0055   0.0038   0.00    1.1   2.50
2019/08/31 08:37:15.000        -9.1008         5.1297        -0.0354   2   6   0.0073   0.0077   0.0171  -0.0043  -0.0055   0.0037   0.00    1.1   2.50
2019/08/31 08:37:16.000        -9.1003         5.1249        -0.0423   2   6   0.0073   0.0077   0.0172  -0.0042  -0.0055   0.0037   0.00    1.1   2.50
2019/08/31 08:37:17.000        -9.0952         5.1338        -0.0448   2   6   0.0072   0.0077   0.0172  -0.0043  -0.0055   0.0038   0.00    1.1   2.50
2019/08/31 08:37:18.000        -9.0957         5.1323        -0.0590   2   6   0.0072   0.0076   0.0171  -0.0043  -0.0055   0.0038   0.00    1.1   2.50
2019/08/31 08:37:19.000        -9.1021         5.1280        -0.0594   2   6   0.0072   0.0077   0.0171  -0.0043  -0.0056   0.0038   0.00    1.1   2.50
2019/08/31 08:37:20.000        -9.0998         5.1317        -0.0480   2   6   0.0073   0.0077   0.0172  -0.0042  -0.0054   0.0037   0.00    1.1   2.50
2019/08/31 08:37:21.000        -9.0974         5.1288        -0.0511   2   6   0.0073   0.0077   0.0171  -0.0042  -0.0055   0.0038   0.00    1.1   2.50
2019/08/31 08:37:22.000        -9.0997         5.1311        -0.0544   2   6   0.0072   0.0077   0.0172  -0.0043  -0.0055   0.0037   0.00    1.1   2.50
2019/08/31 08:37:23.000        -9.1012         5.1354        -0.0596   2   6   0.0073   0.0076   0.0172  -0.0042  -0.0055   0.0037   0.00    1.1   2.50
2019/08/31 08:37:24.000        -9.1081         5.1325        -0.0535   2   6   0.0073   0.0077   0.0172  -0.0042  -0.0055   0.0037   0.00    1.1   2.50
2019/08/31 08:37:25.000        -9.1037         5.1296        -0.0564   2   6   0.0072   0.0077   0.0171  -0.0043  -0.0055   0.0038   0.00    1.1   2.50
2019/08/31 08:37:26.000        -9.0986         5.1330        -0.0497   2   6   0.0073   0.0077   0.0172  -0.0042  -0.0055   0.0038   0.00    1.1   2.50
2019/08/31 08:37:27.000        -9.1063         5.1275        -0.0589   2   6   0.0073   0.0077   0.0172  -0.0042  -0.0055   0.0037   0.00    1.1   2.50
2019/08/31 08:37:28.000        -9.1029         5.1250        -0.0517   2   6   0.0073   0.0077   0.0172  -0.0042  -0.0055   0.0037   0.00    1.1   2.50
2019/08/31 08:37:29.000        -9.1076         5.1281        -0.0533   2   6   0.0072   0.0076   0.0172  -0.0043  -0.0055   0.0038   0.00    1.1   2.50
2019/08/31 08:37:30.000        -9.1009         5.1290        -0.0520   2   6   0.0073   0.0076   0.0172  -0.0043  -0.0055   0.0038   0.00    1.1   2.50
2019/08/31 08:37:31.000        -9.1046         5.1300        -0.0488   2   6   0.0074   0.0077   0.0172  -0.0042  -0.0056   0.0037   0.00    1.1   2.50
2019/08/31 08:37:32.000        -9.1089         5.1311        -0.0518   2   6   0.0072   0.0077   0.0172  -0.0042  -0.0055   0.0038   0.00    1.1   2.50
2019/08/31 08:37:33.000        -9.1036         5.1271        -0.0444   2   6   0.0073   0.0076   0.0172  -0.0042  -0.0056   0.0037   0.00    1.1   2.51
2019/08/31 08:37:34.000        -9.1040         5.1266        -0.0474   2   6   0.0072   0.0077   0.0172  -0.0043  -0.0055   0.0038   0.00    1.1   2.51
2019/08/31 08:37:35.000        -9.1010         5.1336        -0.0592   2   6   0.0073   0.0077   0.0172  -0.0042  -0.0055   0.0038   0.00    1.1   2.51
2019/08/31 08:37:36.000        -9.1046         5.1266        -0.0634   2   6   0.0072   0.0077   0.0172  -0.0043  -0.0056   0.0038   0.00    1.1   2.51
2019/08/31 08:37:37.000        -9.1050         5.1269        -0.0595   2   6   0.0074   0.0077   0.0172  -0.0041  -0.0055   0.0038   0.00    1.1   2.51
2019/08/31 08:37:38.000        -9.1055         5.1293        -0.0565   2   6   0.0072   0.0077   0.0172  -0.0042  -0.0056   0.0038   0.00    1.1   2.51
2019/08/31 08:37:39.000        -9.1068         5.1254        -0.0685   2   6   0.0073   0.0076   0.0172  -0.0042  -0.0056   0.0038   0.00    1.1   2.51
2019/08/31 08:37:40.000        -9.1039         5.1252        -0.0623   2   6   0.0073   0.0076   0.0172  -0.0043  -0.0055   0.0038   0.00    1.1   2.51
2019/08/31 08:37:41.000        -9.1039         5.1236        -0.0502   2   6   0.0073   0.0077   0.0172  -0.0043  -0.0055   0.0038   0.00    1.1   2.51
2019/08/31 08:37:42.000        -9.1030         5.1301        -0.0693   2   6   0.0074   0.0076   0.0172  -0.0042  -0.0055   0.0038   0.00    1.1   2.51
2019/08/31 08:37:43.000        -9.1068         5.1261        -0.0513   2   6   0.0073   0.0076   0.0172  -0.0042  -0.0056   0.0038   0.00    1.1   2.51
2019/08/31 08:37:44.000        -9.1014         5.1293        -0.0692   2   6   0.0073   0.0077   0.0172  -0.0042  -0.0056   0.0038   0.00    1.1   2.51
2019/08/31 08:37:45.000        -9.1012         5.1240        -0.0608   2   6   0.0073   0.0077   0.0172  -0.0042  -0.0056   0.0037   0.00    1.1   2.51
2019/08/31 08:37:46.000        -9.1017         5.1274        -0.0720   2   6   0.0073   0.0076   0.0172  -0.0042  -0.0056   0.0038   0.00    1.1   2.51
2019/08/31 08:37:47.000        -9.0990         5.1243        -0.0569   2   6   0.0073   0.0077   0.0172  -0.0041  -0.0055   0.0038   0.00    1.1   2.51
2019/08/31 08:37:48.000        -9.1016         5.1286        -0.0707   2   6   0.0073   0.0077   0.0172  -0.0042  -0.0056   0.0038   0.00    1.1   2.51
2019/08/31 08:37:49.000        -9.1006         5.1247        -0.0729   2   6   0.0073   0.0077   0.0172  -0.0042  -0.0056   0.0038   0.00    1.1   2.51
2019/08/31 08:37:50.000        -9.1005         5.1284        -0.0616   2   6   0.0072   0.0076   0.0172  -0.0042  -0.0056   0.0039   0.00    1.1   2.51
2019/08/31 08:37:51.000        -9.1021         5.1287        -0.0832   2   6   0.0072   0.0077   0.0172  -0.0043  -0.0055   0.0039   0.00    1.2   2.51
2019/08/31 08:37:52.000        -9.1006         5.1257        -0.0555   2   6   0.0073   0.0077   0.0172  -0.0041  -0.0056   0.0038   0.00    1.2   2.51
2019/08/31 08:37:53.000        -9.1052         5.1264        -0.0674   2   6   0.0073   0.0076   0.0172  -0.0042  -0.0056   0.0038   0.00    1.2   2.51
2019/08/31 08:37:54.000        -9.1000         5.1308        -0.0753   2   6   0.0073   0.0076   0.0172  -0.0042  -0.0055   0.0037   0.00    1.2   2.51
2019/08/31 08:37:55.000        -9.1007         5.1268        -0.0607   2   6   0.0073   0.0077   0.0172  -0.0042  -0.0056   0.0038   0.00    1.2   2.52
2019/08/31 08:37:56.000        -9.0956         5.1292        -0.0581   2   6   0.0073   0.0077   0.0172  -0.0042  -0.0056   0.0038   0.00    1.2   2.52
2019/08/31 08:37:57.000        -9.0920         5.1307        -0.0594   2   6   0.0072   0.0076   0.0172  -0.0042  -0.0055   0.0039   0.00    1.2   2.52
2019/08/31 08:37:58.000        -9.0986         5.1280        -0.0613   2   6   0.0072   0.0076   0.0172  -0.0042  -0.0056   0.0039   0.00    1.2   2.52
2019/08/31 08:37:59.000        -9.1043         5.1302        -0.0603   2   6   0.0072   0.0076   0.0172  -0.0042  -0.0055   0.0039   0.00    1.2   2.52
2019/08/31 08:38:00.000        -9.0978         5.1292        -0.0620   2   6   0.0072   0.0076   0.0172  -0.0042  -0.0056   0.0038   0.00    1.2   2.52
2019/08/31 08:38:01.000        -9.0966         5.1289        -0.0557   2   6   0.0073   0.0076   0.0172  -0.0042  -0.0056   0.0038   0.00    1.2   2.52
2019/08/31 08:38:02.000        -9.0998         5.1292        -0.0498   2   6   0.0073   0.0077   0.0172  -0.0042  -0.0056   0.0038   0.00    1.2   2.52
2019/08/31 08:38:03.000        -9.1002         5.1266        -0.0428   2   6   0.0072   0.0076   0.0172  -0.0043  -0.0056   0.0039   0.00    1.2   2.52
2019/08/31 08:38:04.000        -9.1056         5.1300        -0.0592   2   6   0.0072   0.0076   0.0172  -0.0042  -0.0055   0.0039   0.00    1.2   2.52
2019/08/31 08:38:05.000        -9.1036         5.1296        -0.0355   2   6   0.0073   0.0076   0.0172  -0.0042  -0.0056   0.0038   0.00    1.2   2.52
2019/08/31 08:38:06.000        -9.1040         5.1284        -0.0635   2   6   0.0072   0.0076   0.0172  -0.0042  -0.0056   0.0039   0.00    1.2   2.52
2019/08/31 08:38:07.000        -9.1047         5.1262        -0.0454   2   6   0.0072   0.0076   0.0172  -0.0043  -0.0056   0.0039   0.00    1.2   2.52
2019/08/31 08:38:08.000        -9.1139         5.1324        -0.0694   2   6   0.0073   0.0076   0.0172  -0.0042  -0.0056   0.0038   0.00    1.2   2.52
2019/08/31 08:38:09.000        -9.1066         5.1261        -0.0722   2   6   0.0073   0.0077   0.0172  -0.0042  -0.0056   0.0039   0.00    1.2   2.52
2019/08/31 08:38:10.000        -9.1058         5.1313        -0.0450   2   6   0.0073   0.0076   0.0172  -0.0042  -0.0056   0.0038   0.00    1.2   2.52
2019/08/31 08:38:11.000        -9.1044         5.1294        -0.0530   2   6   0.0073   0.0076   0.0172  -0.0042  -0.0056   0.0038   0.00    1.2   2.52
2019/08/31 08:38:12.000        -9.1128         5.1293        -0.0568   2   6   0.0073   0.0077   0.0172  -0.0041  -0.0056   0.0038   0.00    1.2   2.52
2019/08/31 08:38:13.000        -9.1078         5.1289        -0.0739   2   6   0.0073   0.0076   0.0172  -0.0042  -0.0056   0.0038   0.00    1.2   2.52
2019/08/31 08:38:14.000        -9.1072         5.1270        -0.0512   2   6   0.0072   0.0076   0.0172  -0.0042  -0.0056   0.0039   0.00    1.3   2.52
2019/08/31 08:38:15.000        -9.1087         5.1280        -0.0727   2   6   0.0073   0.0076   0.0172  -0.0042  -0.0056   0.0039   0.00    1.3   2.52
2019/08/31 08:38:16.000        -9.1103         5.1258        -0.0481   2   6   0.0072   0.0076   0.0173  -0.0042  -0.0056   0.0038   0.00    1.3   2.53
2019/08/31 08:38:17.000        -9.1031         5.1292        -0.0520   2   6   0.0072   0.0076   0.0172  -0.0042  -0.0056   0.0039   0.00    1.3   2.53
2019/08/31 08:38:18.000        -9.1046         5.1296        -0.0595   2   6   0.0073   0.0076   0.0172  -0.0041  -0.0056   0.0038   0.00    1.3   2.53
2019/08/31 08:38:19.000        -9.1133         5.1306        -0.0716   2   6   0.0072   0.0076   0.0172  -0.0041  -0.0056   0.0039   0.00    1.3   2.53
2019/08/31 08:38:20.000        -9.1101         5.1311        -0.0667   2   6   0.0073   0.0076   0.0172  -0.0041  -0.0056   0.0038   0.00    1.3   2.53
2019/08/31 08:38:21.000        -9.1066         5.1272        -0.0491   2   6   0.0072   0.0076   0.0172  -0.0042  -0.0056   0.0039   0.00    1.3   2.53
2019/08/31 08:38:22.000        -9.1080         5.1293        -0.0679   2   6   0.0072   0.0076   0.0173  -0.0042  -0.0056   0.0039   0.00    1.3   2.53
2019/08/31 08:38:23.000        -9.1086         5.1305        -0.0592   2   6   0.0072   0.0076   0.0173  -0.0042  -0.0056   0.0039   0.00    1.3   2.53
2019/08/31 08:38:24.000        -9.1032         5.1311        -0.0573   2   6   0.0073   0.0076   0.0173  -0.0042  -0.0056   0.0038   0.00    1.3   2.53
2019/08/31 08:38:25.000        -9.1053         5.1300        -0.0687   2   6   0.0072   0.0076   0.0173  -0.0042  -0.0056   0.0039   0.00    1.3   2.53
2019/08/31 08:38:26.000        -9.1090         5.1315        -0.0690   2   6   0.0072   0.0076   0.0173  -0.0041  -0.0056   0.0039   0.00    1.3   2.53
2019/08/31 08:38:27.000        -9.1081         5.1292        -0.0641   2   6   0.0073   0.0076   0.0173  -0.0042  -0.0056   0.0038   0.00    1.3   2.53
2019/08/31 08:38:28.000        -9.1093         5.1312        -0.0581   2   6   0.0073   0.0076   0.0173  -0.0041  -0.0056   0.0039   0.00    1.3   2.53
2019/08/31 08:38:29.000        -9.1067         5.1348        -0.0805   2   6   0.0072   0.0076   0.0173  -0.0042  -0.0056   0.0039   0.00    1.3   2.53
2019/08/31 08:38:30.000        -9.1076         5.1358        -0.0635   2   6   0.0072   0.0076   0.0173  -0.0042  -0.0056   0.0039   0.00    1.3   2.53
2019/08/31 08:38:31.000        -9.1093         5.1308        -0.0670   2   6   0.0073   0.0076   0.0172  -0.0041  -0.0057   0.0038   0.00    1.3   2.53
